<?xml version="1.0" encoding="UTF-8"?>
<kml xmlns="http://www.opengis.net/kml/2.2">
  <Document>
    <name>osrm</name>
    <description/>
    <Style id="icon-1899-0288D1-nodesc-normal">
      <IconStyle>
        <color>ffd18802</color>
        <scale>1</scale>
        <Icon>
          <href>https://www.gstatic.com/mapspro/images/stock/503-wht-blank_maps.png</href>
        </Icon>
        <hotSpot x="32" xunits="pixels" y="64" yunits="insetPixels"/>
      </IconStyle>
      <LabelStyle>
        <scale>0</scale>
      </LabelStyle>
      <BalloonStyle>
        <text><![CDATA[<h3>$[name]</h3>]]></text>
      </BalloonStyle>
    </Style>
    <Style id="icon-1899-0288D1-nodesc-highlight">
      <IconStyle>
        <color>ffd18802</color>
        <scale>1</scale>
        <Icon>
          <href>https://www.gstatic.com/mapspro/images/stock/503-wht-blank_maps.png</href>
        </Icon>
        <hotSpot x="32" xunits="pixels" y="64" yunits="insetPixels"/>
      </IconStyle>
      <LabelStyle>
        <scale>1</scale>
      </LabelStyle>
      <BalloonStyle>
        <text><![CDATA[<h3>$[name]</h3>]]></text>
      </BalloonStyle>
    </Style>
    <StyleMap id="icon-1899-0288D1-nodesc">
      <Pair>
        <key>normal</key>
        <styleUrl>#icon-1899-0288D1-nodesc-normal</styleUrl>
      </Pair>
      <Pair>
        <key>highlight</key>
        <styleUrl>#icon-1899-0288D1-nodesc-highlight</styleUrl>
      </Pair>
    </StyleMap>
    <Folder>
      <name>Destinations</name>
      <Placemark>
        <name>Merlion</name>
        <styleUrl>#icon-1899-0288D1-nodesc</styleUrl>
        <Point>
          <coordinates>
            103.8547688,1.2869149,0
          </coordinates>
        </Point>
      </Placemark>
      <Placemark>
        <name>Marina Bay Financial Center</name>
        <styleUrl>#icon-1899-0288D1-nodesc</styleUrl>
        <Point>
          <coordinates>
            103.854498,1.2821578,0
          </coordinates>
        </Point>
      </Placemark>
      <Placemark>
        <name>Meadow</name>
        <styleUrl>#icon-1899-0288D1-nodesc</styleUrl>
        <Point>
          <coordinates>
            103.8622062,1.2795255,0
          </coordinates>
        </Point>
      </Placemark>
      <Placemark>
        <name>Fort Canning Park</name>
        <styleUrl>#icon-1899-0288D1-nodesc</styleUrl>
        <Point>
          <coordinates>
            103.8476213,1.2918406,0
          </coordinates>
        </Point>
      </Placemark>
      <Placemark>
        <name>Marina Barrage</name>
        <styleUrl>#icon-1899-0288D1-nodesc</styleUrl>
        <Point>
          <coordinates>
            103.8705445,1.2806791,0
          </coordinates>
        </Point>
      </Placemark>
      <Placemark>
        <name>Bendemeer Home</name>
        <styleUrl>#icon-1899-0288D1-nodesc</styleUrl>
        <Point>
          <coordinates>
            103.8708364,1.3165826,0
          </coordinates>
        </Point>
      </Placemark>
      <Placemark>
        <name>Marina Bay Cruise Center</name>
        <styleUrl>#icon-1899-0288D1-nodesc</styleUrl>
        <Point>
          <coordinates>
            103.8590068,1.2694073,0
          </coordinates>
        </Point>
      </Placemark>
      <Placemark>
        <name>MacRitchie Reservoir Park Car Park</name>
        <styleUrl>#icon-1899-0288D1-nodesc</styleUrl>
        <Point>
          <coordinates>
            103.8340349,1.3412162,0
          </coordinates>
        </Point>
      </Placemark>
      <Placemark>
        <name>Singapore Botanic Gardens</name>
        <styleUrl>#icon-1899-0288D1-nodesc</styleUrl>
        <Point>
          <coordinates>
            103.8159136,1.3138397,0
          </coordinates>
        </Point>
      </Placemark>
      <Placemark>
        <name>Mount Faber Park</name>
        <styleUrl>#icon-1899-0288D1-nodesc</styleUrl>
        <Point>
          <coordinates>
            103.8192125,1.2718742,0
          </coordinates>
        </Point>
      </Placemark>
      <Placemark>
        <name><![CDATA[Pearl's Hill]]></name>
        <styleUrl>#icon-1899-0288D1-nodesc</styleUrl>
        <Point>
          <coordinates>
            103.84,1.2838889,0
          </coordinates>
        </Point>
      </Placemark>
      <Placemark>
        <name>Bedok Reservoir</name>
        <styleUrl>#icon-1899-0288D1-nodesc</styleUrl>
        <Point>
          <coordinates>
            103.9245499,1.3413025,0
          </coordinates>
        </Point>
      </Placemark>
    </Folder>
  </Document>
</kml>
